[
 {
   "Name": "      CENTRAL CHINMAYA MISSION TRUST - MAHARASHTRA",
   "Address": "Saki Vihar Road, Powai, Mumbai, Maharashtra 400072, India",
   "Lat": 19.1324891,
   "Long": 72.8985255
 },
 {
   "Name": "CHINMAYA AWADH - LUCKNOW - UTTAR PRADESH",
   "Address": "C-4, A, H. Park,Mahanagar Extension,Lucknow U.P.,Lucknow - 226006,Uttar Pradesh,India",
   "Lat": 26.883565,
   "Long": 80.954263
 },
 {
   "Name": "CHINMAYA BALANIVASA - ANDHRA PRADESH",
   "Address": "S.V.N Colony,Guntur - 522 006,Andhra Pradesh,India",
   "Lat": 16.325842,
   "Long": 80.415104
 },
 {
   "Name": "CHINMAYA HARIDWAR - OREGON",
   "Address": "3551 NW John Olsen Pl, Hillsboro, OR 97124",
   "Lat": 45.546386,
   "Long": -122.880986
 },
 {
   "Name": "CHINMAYA INTERNATIONAL FOUNDATION (CIF) - KERALA",
   "Address": "Adi Sankara Nilayam, Veliyanad, Ernakulam District, Kerala, India - 682319",
   "Lat": 9.879144,
   "Long": 76.455565
 },
 {
   "Name": "CHINMAYA MISSION VIJAYANAGARAM - ANDHRA PRADESH",
   "Address": "Vizianagaram Cantonment, Vizianagaram, Andhra Pradesh 535003, India",
   "Lat": 18.111636,
   "Long": 83.395244
 },
 {
   "Name": "CHINMAYA MISSION ADONI - ANDHRA PRADESH",
   "Address": "2/158 - A , Chinmaya Cultural Complex, Raghavendra Nagar, Adoni Arts College Road - 518302",
   "Lat": 15.630349,
   "Long": 77.290614
 },
 {
   "Name": "CHINMAYA MISSION AHMEDABAD - GUJARAT",
   "Address": "Param Dham Satellite Road, Jodhpur Tekra, Ahmedabad - 380 015",
   "Lat": 23.028391,
   "Long": 72.520227
 },
 {
   "Name": "CHINMAYA MISSION AHMEDNAGAR - MAHARASHTRA",
   "Address": "No.6 Old Prant Kacheri, Markendeya Housing Society, Aurangabad Road, Ahmednagar - 414 001",
   "Lat": 19.835939,
   "Long": 75.292161
 },
 {
   "Name": "CHINMAYA MISSION AKIVEDU - ANDHRA PRADESH",
   "Address": "Tank Bund, Kodanda Ramalayam Street, West Godavari District, Akkiveedu- 534 235, Andhra Pradesh",
   "Lat": 16.582544,
   "Long": 81.373271
 }
]